[{"Place of interest":"Almacenes Rodr\u00edguez","Type of place":"Edificios de car\u00e1cter monumental","Place address":"Calle CABALLERO DE GRACIA 3","Long_finish":-3.7009242751,"Lat_finish":40.4197160005},{"Place of interest":"Antigua F\u00e1brica Martini &amp; Rossi","Type of place":"Edificios de car\u00e1cter monumental","Place address":"AVENIDA ARAGON 328","Long_finish":-3.5846718811,"Lat_finish":40.4494877152},{"Place of interest":"Ateneo de Madrid","Type of place":"Edificios de car\u00e1cter monumental","Place address":"Calle PRADO 21","Long_finish":-3.6983688941,"Lat_finish":40.4153981149},{"Place of interest":"Banco Bilbao Vizcaya Argentaria","Type of place":"Edificios de car\u00e1cter monumental","Place address":"Calle ALCAL\u00c1 16","Long_finish":-3.6995677393,"Lat_finish":40.4173458299},{"Place of interest":"Banco de Espa\u00f1a","Type of place":"Edificios de car\u00e1cter monumental","Place address":"Calle ALCAL\u00c1 48","Long_finish":-3.6950725921,"Lat_finish":40.4180756473},{"Place of interest":"Banco Matritense","Type of place":"Edificios de car\u00e1cter monumental","Place address":"Calle GRAN VIA 22","Long_finish":-3.7002333412,"Lat_finish":40.4201526212},{"Place of interest":"Bas\u00edlica Pontificia de San Miguel","Type of place":"Edificios de car\u00e1cter monumental","Place address":"CALLE SAN JUSTO 4","Long_finish":-3.7096614825,"Lat_finish":40.4142053149},{"Place of interest":"Biblioteca Central de la UNED Madrid","Type of place":"Edificios de car\u00e1cter monumental","Place address":"CALLE SENDA DEL REY 8","Long_finish":-3.731936575,"Lat_finish":40.4326726004},{"Place of interest":"Biblioteca P\u00fablica Usera Jos\u00e9 Hierro","Type of place":"Edificios de car\u00e1cter monumental","Place address":"AVENIDA RAFAELA YBARRA 43","Long_finish":-3.7106157111,"Lat_finish":40.3818823013},{"Place of interest":"Bolsa de Madrid","Type of place":"Edificios de car\u00e1cter monumental","Place address":"PLAZA LEALTAD 1","Long_finish":-3.6921641191,"Lat_finish":40.4168690582},{"Place of interest":"CaixaForum","Type of place":"Edificios de car\u00e1cter monumental","Place address":"PASEO PRADO 36","Long_finish":-3.6933720637,"Lat_finish":40.4110029647},{"Place of interest":"Capilla de San Isidro en la Iglesia de San Andr\u00e9s","Type of place":"Edificios de car\u00e1cter monumental","Place address":"PLAZA SAN ANDRES 1","Long_finish":-3.7108094184,"Lat_finish":40.412081678},{"Place of interest":"Casa \u00c1rabe (antiguas Escuelas Aguirre)","Type of place":"Edificios de car\u00e1cter monumental","Place address":"CALLE ALCALA 62","Long_finish":-3.6821165451,"Lat_finish":40.4217595138},{"Place of interest":"Casa de la Villa","Type of place":"Edificios de car\u00e1cter monumental","Place address":"PLAZA VILLA 5","Long_finish":-3.7106114422,"Lat_finish":40.4151993038},{"Place of interest":"Casa de las Alhajas. Antigua Caja de Ahorros","Type of place":"Edificios de car\u00e1cter monumental","Place address":"PLAZA SAN MARTIN 1","Long_finish":-3.7069590772,"Lat_finish":40.4181585519},{"Place of interest":"Casa de las Flores","Type of place":"Edificios de car\u00e1cter monumental","Place address":"CALLE RODRIGUEZ SAN PEDRO 72","Long_finish":-3.7165599012,"Lat_finish":40.4320025355},{"Place of interest":"Casa del cura de la iglesia de San Jos\u00e9","Type of place":"Edificios de car\u00e1cter monumental","Place address":"Calle ALCAL\u00c1 ","Long_finish":-3.6968874465,"Lat_finish":40.4191818434},{"Place of interest":"Casa Sindical (actual sede del Ministerio de Sanidad, Servicios Sociales e Igualdad)","Type of place":"Edificios de car\u00e1cter monumental","Place address":"PASEO PRADO 18","Long_finish":-3.6940288616,"Lat_finish":40.4137300282},{"Place of interest":"Casino de Madrid","Type of place":"Edificios de car\u00e1cter monumental","Place address":"CALLE ALCALA 15","Long_finish":-3.700280012,"Lat_finish":40.4177754145},{"Place of interest":"Casita Del Pr\u00edncipe (El Pardo)","Type of place":"Edificios de car\u00e1cter monumental","Place address":"CALLE ADELINA PATTI 1","Long_finish":-3.7793722664,"Lat_finish":40.5237135629},{"Place of interest":"Cementerio de la Almudena","Type of place":"Edificios de car\u00e1cter monumental","Place address":"AVENIDA DAROCA 94","Long_finish":-3.646155575,"Lat_finish":40.4266231366},{"Place of interest":"Central El\u00e9ctrica del Pac\u00edfico, talleres y oficinas del Metro","Type of place":"Edificios de car\u00e1cter monumental","Place address":"CALLE VALDERRIBAS 49","Long_finish":-3.6744688234,"Lat_finish":40.4040048271},{"Place of interest":"Centro Cultural Dao\u00edz y Velarde","Type of place":"Edificios de car\u00e1cter monumental","Place address":"PLAZA DAOIZ Y VELARDE 4","Long_finish":-3.6771876805,"Lat_finish":40.4018056769},{"Place of interest":"Centro Cultural La Corrala (sede del Museo de Artes y Tradiciones Populares)","Type of place":"Edificios de car\u00e1cter monumental","Place address":"CALLE CARLOS ARNICHES 3","Long_finish":-3.7083241323,"Lat_finish":40.4088272756},{"Place of interest":"Centro del Ej\u00e9rcito y la Armada (Casino Militar)","Type of place":"Edificios de car\u00e1cter monumental","Place address":"Calle CABALLERO DE GRACIA 9","Long_finish":-3.6999439221,"Lat_finish":40.4195237411},{"Place of interest":"Cine Avenida","Type of place":"Edificios de car\u00e1cter monumental","Place address":"Calle ABADA 11","Long_finish":-3.705075648,"Lat_finish":40.4199249927},{"Place of interest":"Cine Callao","Type of place":"Edificios de car\u00e1cter monumental","Place address":"Plaza CALLAO 2","Long_finish":-3.7062667699,"Lat_finish":40.4199807857},{"Place of interest":"Cine Gran V\u00eda y Hotel Vincci","Type of place":"Edificios de car\u00e1cter monumental","Place address":"Calle GARCIA MOLINAS ","Long_finish":-3.7087338575,"Lat_finish":40.4225602901},{"Place of interest":"C\u00edrculo de Bellas Artes","Type of place":"Edificios de car\u00e1cter monumental","Place address":"Calle ALCAL\u00c1 42","Long_finish":-3.6965116549,"Lat_finish":40.4181750953},{"Place of interest":"C\u00edrculo de la Uni\u00f3n Mercantil e Industrial","Type of place":"Edificios de car\u00e1cter monumental","Place address":"Calle GRAN VIA 24","Long_finish":-3.7007767497,"Lat_finish":40.4202664462},{"Place of interest":"Ciudad Universitaria de Madrid","Type of place":"Edificios de car\u00e1cter monumental","Place address":"CIUDAD UNIVERSITARIA ","Long_finish":-3.7254416045,"Lat_finish":40.4581714181},{"Place of interest":"Colegio de Nuestra Se\u00f1ora de Loreto. Madres Ursulinas","Type of place":"Edificios de car\u00e1cter monumental","Place address":"CALLE PRINCIPE DE VERGARA 42","Long_finish":-3.6797153642,"Lat_finish":40.428095117},{"Place of interest":"Colegio Mayor Casa do Brasil","Type of place":"Edificios de car\u00e1cter monumental","Place address":"AVENIDA ARCO DE LA VICTORIA 3","Long_finish":-3.7252915758,"Lat_finish":40.4385358308},{"Place of interest":"Colegio Nuestra Se\u00f1ora del Pilar","Type of place":"Edificios de car\u00e1cter monumental","Place address":"CALLE CASTELLO 56","Long_finish":-3.6811529346,"Lat_finish":40.4282846745},{"Place of interest":"Colegio Oficial de Arquitectos de Madrid","Type of place":"Edificios de car\u00e1cter monumental","Place address":"CALLE HORTALEZA 63","Long_finish":-3.6984906424,"Lat_finish":40.4240812138},{"Place of interest":"Complejo El \u00c1guila","Type of place":"Edificios de car\u00e1cter monumental","Place address":"CALLE RAMIREZ DE PRADO 3","Long_finish":-3.6900360151,"Lat_finish":40.3999097918},{"Place of interest":"Congreso de los Diputados","Type of place":"Edificios de car\u00e1cter monumental","Place address":"Plaza CORTES 1","Long_finish":-3.6965760429,"Lat_finish":40.4164179437},{"Place of interest":"Convento de las Comendadoras y parroquia de Santiago el Mayor","Type of place":"Edificios de car\u00e1cter monumental","Place address":"PLAZA COMENDADORAS 10","Long_finish":-3.7089382881,"Lat_finish":40.4274015009},{"Place of interest":"Cuartel del Conde Duque","Type of place":"Edificios de car\u00e1cter monumental","Place address":"Calle CONDE DUQUE 9","Long_finish":-3.7110610576,"Lat_finish":40.4275099745},{"Place of interest":"Edificio Bankinter","Type of place":"Edificios de car\u00e1cter monumental","Place address":"PASEO CASTELLANA 29","Long_finish":-3.6895083661,"Lat_finish":40.4307196531},{"Place of interest":"Edificio Bankuni\u00f3n (Parlamento Europeo y Embajada de Irlanda)","Type of place":"Edificios de car\u00e1cter monumental","Place address":"PASEO CASTELLANA 46","Long_finish":-3.6878737998,"Lat_finish":40.4342055221},{"Place of interest":"Edificio Carri\u00f3n (Capitol)","Type of place":"Edificios de car\u00e1cter monumental","Place address":"Calle GRAN VIA 41","Long_finish":-3.7067660565,"Lat_finish":40.4203831412},{"Place of interest":"Edificio Coliseum (Teatro Coliseum)","Type of place":"Edificios de car\u00e1cter monumental","Place address":"CALLE GRAN VIA 78","Long_finish":-3.7102689442,"Lat_finish":40.4232376493},{"Place of interest":"Edificio de 20 viviendas en calle Cervantes","Type of place":"Edificios de car\u00e1cter monumental","Place address":"CALLE CERVANTES 36","Long_finish":-3.6960780696,"Lat_finish":40.4142694233},{"Place of interest":"Edificio de La Uni\u00f3n y el F\u00e9nix","Type of place":"Edificios de car\u00e1cter monumental","Place address":"Calle GARCIA MOLINAS ","Long_finish":-3.7091355686,"Lat_finish":40.4226479171},{"Place of interest":"Edificio de Los Previsores del Porvenir","Type of place":"Edificios de car\u00e1cter monumental","Place address":"Calle CABALLERO DE GRACIA 19","Long_finish":-3.6984903374,"Lat_finish":40.4191631615},{"Place of interest":"Edificio de Oficinas y Apartamentos","Type of place":"Edificios de car\u00e1cter monumental","Place address":"Calle GRAN VIA 43","Long_finish":-3.7070505439,"Lat_finish":40.4205345553},{"Place of interest":"Edificio de Viviendas en la calle Hilari\u00f3n Eslava","Type of place":"Edificios de car\u00e1cter monumental","Place address":"CALLE HILARION ESLAVA 10","Long_finish":-3.7164990134,"Lat_finish":40.4332859766},{"Place of interest":"Edificio Girasol","Type of place":"Edificios de car\u00e1cter monumental","Place address":"CALLE LAGASCA 90","Long_finish":-3.6846446339,"Lat_finish":40.4309274784},{"Place of interest":"Edificio Gran Pe\u00f1a","Type of place":"Edificios de car\u00e1cter monumental","Place address":"Calle GRAN VIA 2","Long_finish":-3.6973017464,"Lat_finish":40.4193505172},{"Place of interest":"Edificio Hostal Lauria","Type of place":"Edificios de car\u00e1cter monumental","Place address":"Calle GRAN VIA 50","Long_finish":-3.7065010851,"Lat_finish":40.420970348},{"Place of interest":"Edificio La Adri\u00e1tica","Type of place":"Edificios de car\u00e1cter monumental","Place address":"Plaza CALLAO ","Long_finish":-3.7053592829,"Lat_finish":40.4199953349},{"Place of interest":"Edificio Los S\u00f3tanos","Type of place":"Edificios de car\u00e1cter monumental","Place address":"Calle GRAN VIA 59","Long_finish":-3.7091520479,"Lat_finish":40.4219721386},{"Place of interest":"Edificio Los S\u00f3tanos","Type of place":"Edificios de car\u00e1cter monumental","Place address":"Calle GRAN VIA 57","Long_finish":-3.709008238,"Lat_finish":40.4217477948},{"Place of interest":"Edificio Los S\u00f3tanos y Teatro Lope de Vega","Type of place":"Edificios de car\u00e1cter monumental","Place address":"Calle GRAN VIA 55","Long_finish":-3.7087584405,"Lat_finish":40.4215331096},{"Place of interest":"Edificio Matesanz","Type of place":"Edificios de car\u00e1cter monumental","Place address":"Calle GRAN VIA 27","Long_finish":-3.7028114644,"Lat_finish":40.4198306703},{"Place of interest":"Edificio Metr\u00f3polis","Type of place":"Edificios de car\u00e1cter monumental","Place address":"CALLE ALCALA 39","Long_finish":-3.6974552128,"Lat_finish":40.4187102408},{"Place of interest":"Edificio para el Banco Urquijo","Type of place":"Edificios de car\u00e1cter monumental","Place address":"Calle GRAN VIA 4","Long_finish":-3.6975618908,"Lat_finish":40.4194300292},{"Place of interest":"Edificio Rialto","Type of place":"Edificios de car\u00e1cter monumental","Place address":"Calle GRAN VIA 54","Long_finish":-3.7071069352,"Lat_finish":40.4214170959},{"Place of interest":"Edificio Telef\u00f3nica","Type of place":"Edificios de car\u00e1cter monumental","Place address":"CALLE GRAN VIA 28","Long_finish":-3.7020457295,"Lat_finish":40.4202138135},{"Place of interest":"Edificio Vita","Type of place":"Edificios de car\u00e1cter monumental","Place address":"Calle GRAN VIA 62","Long_finish":-3.7083884374,"Lat_finish":40.4222200639},{"Place of interest":"Edificio Vitalicio","Type of place":"Edificios de car\u00e1cter monumental","Place address":"Plaza ESPA\u00d1A ","Long_finish":-3.7108490779,"Lat_finish":40.4230518095},{"Place of interest":"Edificio y Cine Pompeya","Type of place":"Edificios de car\u00e1cter monumental","Place address":"Calle GRAN VIA 70","Long_finish":-3.7093848038,"Lat_finish":40.4228085506},{"Place of interest":"Edificios Los S\u00f3tanos. Hotel Emperador","Type of place":"Edificios de car\u00e1cter monumental","Place address":"Calle GRAN VIA 53","Long_finish":-3.708367673,"Lat_finish":40.4213643329},{"Place of interest":"Ermita de la Virgen del Puerto","Type of place":"Edificios de car\u00e1cter monumental","Place address":"PASEO VIRGEN DEL PUERTO 4","Long_finish":-3.7211351072,"Lat_finish":40.415567839},{"Place of interest":"Ermita de San Antonio de la Florida","Type of place":"Edificios de car\u00e1cter monumental","Place address":"GLORIETA SAN ANTONIO DE LA FLORIDA 4","Long_finish":-3.7260819286,"Lat_finish":40.425614559},{"Place of interest":"Ermita de Santa Maria la Antigua","Type of place":"Edificios de car\u00e1cter monumental","Place address":"CALLE MONSE&amp;Ntilde;OR OSCAR ROMERO 92","Long_finish":-3.7525104807,"Lat_finish":40.3824975394},{"Place of interest":"Escuelas P\u00edas de San Fernando (Biblioteca  y centro de la UNED)","Type of place":"Edificios de car\u00e1cter monumental","Place address":"CALLE SOMBRERETE 15","Long_finish":-3.7034669385,"Lat_finish":40.4080344032},{"Place of interest":"Estaci\u00f3n de Atocha","Type of place":"Edificios de car\u00e1cter monumental","Place address":"PLAZA EMPERADOR CARLOS V 3","Long_finish":-3.6923116994,"Lat_finish":40.4079224555},{"Place of interest":"Fundaci\u00f3n Francisco Giner de los R\u00edos","Type of place":"Edificios de car\u00e1cter monumental","Place address":"PASEO GENERAL MARTINEZ CAMPOS 14","Long_finish":-3.6968108431,"Lat_finish":40.4348774957},{"Place of interest":"Fundaci\u00f3n Juan March","Type of place":"Edificios de car\u00e1cter monumental","Place address":"CALLE CASTELLO 77","Long_finish":-3.6811237643,"Lat_finish":40.4312242224},{"Place of interest":"Gimnasio del Colegio Maravillas","Type of place":"Edificios de car\u00e1cter monumental","Place address":"CALLE JOAQUIN COSTA 21","Long_finish":-3.6874505524,"Lat_finish":40.4462218266},{"Place of interest":"Grandes Almacenes Madrid-Par\u00eds","Type of place":"Edificios de car\u00e1cter monumental","Place address":"Calle DESENGA\u00d1O 7","Long_finish":-3.7034201888,"Lat_finish":40.4205567003},{"Place of interest":"Hip\u00f3dromo de la Zarzuela","Type of place":"Edificios de car\u00e1cter monumental","Place address":"HIPODROMO ZARZUELA ","Long_finish":-3.7574669012,"Lat_finish":40.4786001702},{"Place of interest":"Hospital de Jornaleros San Francisco de Paula","Type of place":"Edificios de car\u00e1cter monumental","Place address":"CALLE MAUDES 17","Long_finish":-3.7011974227,"Lat_finish":40.4453920514},{"Place of interest":"Hotel Alfonso XIII","Type of place":"Edificios de car\u00e1cter monumental","Place address":"Calle GRAN VIA 34","Long_finish":-3.7041151447,"Lat_finish":40.4205074248},{"Place of interest":"Hotel Apartamentos Espahotel","Type of place":"Edificios de car\u00e1cter monumental","Place address":"Calle FLOR BAJA 6","Long_finish":-3.7100653384,"Lat_finish":40.4225070749},{"Place of interest":"Hotel Gran V\u00eda","Type of place":"Edificios de car\u00e1cter monumental","Place address":"Calle GRAN VIA 25","Long_finish":-3.7022331643,"Lat_finish":40.419762112},{"Place of interest":"Hotel Menfis","Type of place":"Edificios de car\u00e1cter monumental","Place address":"Calle GENERAL MITRE ","Long_finish":-3.7097882216,"Lat_finish":40.4230583275},{"Place of interest":"Hotel Metropolitano","Type of place":"Edificios de car\u00e1cter monumental","Place address":"Calle GRAN VIA 23","Long_finish":-3.7019616011,"Lat_finish":40.419718716},{"Place of interest":"Hotel Nueva York y cine Actualidades","Type of place":"Edificios de car\u00e1cter monumental","Place address":"Calle GRAN VIA 48","Long_finish":-3.7062174449,"Lat_finish":40.4209000087},{"Place of interest":"Hotel Palace","Type of place":"Edificios de car\u00e1cter monumental","Place address":"PLAZA CORTES 7","Long_finish":-3.695773374,"Lat_finish":40.4154809922},{"Place of interest":"Hotel Roma","Type of place":"Edificios de car\u00e1cter monumental","Place address":"CALLE CLAVEL 3","Long_finish":-3.6996585726,"Lat_finish":40.4199920675},{"Place of interest":"Hotel Washington","Type of place":"Edificios de car\u00e1cter monumental","Place address":"Calle GRAN VIA 72","Long_finish":-3.7095983943,"Lat_finish":40.4229423753},{"Place of interest":"Hotel y cine Rex","Type of place":"Edificios de car\u00e1cter monumental","Place address":"Calle GRAN VIA 43B","Long_finish":-3.7071579463,"Lat_finish":40.4206600249},{"Place of interest":"Iglesia de la Concepci\u00f3n Real de Calatrava","Type of place":"Edificios de car\u00e1cter monumental","Place address":"Calle ALCAL\u00c1 25","Long_finish":-3.6990119718,"Lat_finish":40.418313159},{"Place of interest":"Iglesia de San Antonio de los Alemanes","Type of place":"Edificios de car\u00e1cter monumental","Place address":"Calle PUEBLA 22","Long_finish":-3.7035109931,"Lat_finish":40.4224840814},{"Place of interest":"Iglesia de San Jer\u00f3nimo el Real","Type of place":"Edificios de car\u00e1cter monumental","Place address":"CALLE MORETO 4","Long_finish":-3.6905230265,"Lat_finish":40.414356518},{"Place of interest":"Iglesia de San Jos\u00e9","Type of place":"Edificios de car\u00e1cter monumental","Place address":"Calle ALCAL\u00c1 43","Long_finish":-3.6967241062,"Lat_finish":40.4193449906},{"Place of interest":"Iglesia de San Manuel y San Benito","Type of place":"Edificios de car\u00e1cter monumental","Place address":"Calle ALCAL\u00c1 83","Long_finish":-3.6862830368,"Lat_finish":40.4207587965},{"Place of interest":"Iglesia de San Marcos","Type of place":"Edificios de car\u00e1cter monumental","Place address":"CALLE SAN LEONARDO 10","Long_finish":-3.7111444272,"Lat_finish":40.4247693879},{"Place of interest":"Iglesia de San Pedro el Viejo","Type of place":"Edificios de car\u00e1cter monumental","Place address":"Calle NUNCIO 14","Long_finish":-3.7102508376,"Lat_finish":40.4132446434},{"Place of interest":"Iglesia Parroquial de Santa Ana y Nuestra Se\u00f1ora de la Esperanza","Type of place":"Edificios de car\u00e1cter monumental","Place address":"CALLE CA\u00d1ADA 35","Long_finish":-3.6450041456,"Lat_finish":40.4054272814},{"Place of interest":"Ilustre Colegio Oficial de M\u00e9dicos de Madrid","Type of place":"Edificios de car\u00e1cter monumental","Place address":"CALLE SANTA ISABEL 51","Long_finish":-3.6953774472,"Lat_finish":40.4092628041},{"Place of interest":"Instituto Cervantes (antiguo Banco Espa\u00f1ol del R\u00edo de la Plata)","Type of place":"Edificios de car\u00e1cter monumental","Place address":"Calle ALCAL\u00c1 49","Long_finish":-3.6953707711,"Lat_finish":40.4195603462},{"Place of interest":"Instituto del Patrimonio Cultural de Espa\u00f1a","Type of place":"Edificios de car\u00e1cter monumental","Place address":"CALLE PINTOR EL GRECO 4","Long_finish":-3.7354647969,"Lat_finish":40.4416666867},{"Place of interest":"La Casa Encendida","Type of place":"Edificios de car\u00e1cter monumental","Place address":"RONDA VALENCIA 2","Long_finish":-3.6997720739,"Lat_finish":40.4059622183},{"Place of interest":"Matadero y Mercado Municipal de Granados","Type of place":"Edificios de car\u00e1cter monumental","Place address":"PASEO CHOPERA 14","Long_finish":-3.6972067903,"Lat_finish":40.3924579819},{"Place of interest":"Medialab-Prado (antigua Serrer\u00eda Belga)","Type of place":"Edificios de car\u00e1cter monumental","Place address":"CALLE ALAMEDA 15","Long_finish":-3.6937819843,"Lat_finish":40.4105673504},{"Place of interest":"Mercado de San Miguel","Type of place":"Edificios de car\u00e1cter monumental","Place address":"Plaza SAN MIGUEL ","Long_finish":-3.7090236922,"Lat_finish":40.4153602919},{"Place of interest":"Ministerio de Agricultura, Pesca y Alimentaci\u00f3n","Type of place":"Edificios de car\u00e1cter monumental","Place address":"PASEO INFANTA ISABEL 1","Long_finish":-3.690619449,"Lat_finish":40.4086390662},{"Place of interest":"Monasterio de las Descalzas Reales","Type of place":"Edificios de car\u00e1cter monumental","Place address":"Plaza DESCALZAS ","Long_finish":-3.7059697622,"Lat_finish":40.418631244},{"Place of interest":"Monasterio de Montserrat","Type of place":"Edificios de car\u00e1cter monumental","Place address":"CALLE SAN BERNARDO 79","Long_finish":-3.7064744951,"Lat_finish":40.4278249621},{"Place of interest":"Museo Cerralbo","Type of place":"Edificios de car\u00e1cter monumental","Place address":"CALLE VENTURA RODRIGUEZ 17","Long_finish":-3.7145996064,"Lat_finish":40.4237792521},{"Place of interest":"Museo de Am\u00e9rica","Type of place":"Edificios de car\u00e1cter monumental","Place address":"AVENIDA REYES CATOLICOS 6","Long_finish":-3.7218544183,"Lat_finish":40.4379372549},{"Place of interest":"Museo de Historia de Madrid. Museo Municipal de Madrid","Type of place":"Edificios de car\u00e1cter monumental","Place address":"CALLE FUENCARRAL 78","Long_finish":-3.7009269725,"Lat_finish":40.4257331393},{"Place of interest":"Museo del Ferrocarril","Type of place":"Edificios de car\u00e1cter monumental","Place address":"PASEO DELICIAS 1","Long_finish":-3.6930483362,"Lat_finish":40.4069965056},{"Place of interest":"Museo L\u00e1zaro Galdiano","Type of place":"Edificios de car\u00e1cter monumental","Place address":"CALLE SERRANO 122","Long_finish":-3.6861820404,"Lat_finish":40.4367559392},{"Place of interest":"Museo Nacional Centro de Arte Reina Sof\u00eda","Type of place":"Edificios de car\u00e1cter monumental","Place address":"CALLE SANTA ISABEL 52","Long_finish":-3.6939504103,"Lat_finish":40.4086402934},{"Place of interest":"Museo Nacional de Ciencias Naturales y Escuela T\u00e9cnica Superior de Ingenieros Industriales","Type of place":"Edificios de car\u00e1cter monumental","Place address":"CALLE JOSE GUTIERREZ ABASCAL 2","Long_finish":-3.690212175,"Lat_finish":40.4404260032},{"Place of interest":"Museo Nacional del Prado","Type of place":"Edificios de car\u00e1cter monumental","Place address":"PASEO PRADO 1","Long_finish":-3.6925831204,"Lat_finish":40.4185447538},{"Place of interest":"Museo Sorolla","Type of place":"Edificios de car\u00e1cter monumental","Place address":"Paseo GENERAL MARTINEZ CAMPOS 37","Long_finish":-3.6924338179,"Lat_finish":40.4354699017},{"Place of interest":"Museo Thyssen-Bornemisza (Palacio de Vistahermosa)","Type of place":"Edificios de car\u00e1cter monumental","Place address":"PASEO PRADO 8","Long_finish":-3.6947383469,"Lat_finish":40.4160163176},{"Place of interest":"Nuevos Ministerios","Type of place":"Edificios de car\u00e1cter monumental","Place address":"CALLE AGUSTIN DE BETANCOURT 4","Long_finish":-3.6946273,"Lat_finish":40.4426891971},{"Place of interest":"Observatorio Astron\u00f3mico","Type of place":"Edificios de car\u00e1cter monumental","Place address":"CALLE ALFONSO XII 3","Long_finish":-3.688451667,"Lat_finish":40.4095115486},{"Place of interest":"Oficinas para Ram\u00f3n L\u00f3pez-Rumayor Lombera","Type of place":"Edificios de car\u00e1cter monumental","Place address":"Calle CONCEPCION ARENAL 1","Long_finish":-3.7049639868,"Lat_finish":40.42052027},{"Place of interest":"Oficinas para Vicente Patuel","Type of place":"Edificios de car\u00e1cter monumental","Place address":"Calle CHINCHILLA 9","Long_finish":-3.7038255941,"Lat_finish":40.4198695462},{"Place of interest":"Oratorio del Caballero de Gracia","Type of place":"Edificios de car\u00e1cter monumental","Place address":"Calle CABALLERO DE GRACIA 5","Long_finish":null,"Lat_finish":null},{"Place of interest":"Palacio de Altamira (Instituto Europeo del Dise\u00f1o)","Type of place":"Edificios de car\u00e1cter monumental","Place address":"Calle FLOR ALTA 8","Long_finish":-3.7072874201,"Lat_finish":40.4217673442},{"Place of interest":"Palacio de Amboage (actual sede de la Embajada de Italia)","Type of place":"Edificios de car\u00e1cter monumental","Place address":"CALLE LAGASCA 98","Long_finish":-3.6845517102,"Lat_finish":40.4321110939},{"Place of interest":"Palacio de Biblioteca y Museos Nacionales","Type of place":"Edificios de car\u00e1cter monumental","Place address":"CALLE SERRANO 13","Long_finish":-3.6884121235,"Lat_finish":40.4232789604},{"Place of interest":"Palacio de Buena Vista (actual sede del Cuartel General del Ej\u00e9rcito de Tierra)","Type of place":"Edificios de car\u00e1cter monumental","Place address":"Calle ALCAL\u00c1 51","Long_finish":-3.6945443829,"Lat_finish":40.4205833352},{"Place of interest":"Palacio de Comunicaciones (Palacio de Cibeles, Ayuntamiento de Madrid)","Type of place":"Edificios de car\u00e1cter monumental","Place address":"PLAZA CIBELES 1","Long_finish":-3.6921881937,"Lat_finish":40.4190226162},{"Place of interest":"Palacio de Fern\u00e1n Nu\u00f1ez (Fundaci\u00f3n de los Ferrocarriles Espa\u00f1oles)","Type of place":"Edificios de car\u00e1cter monumental","Place address":"CALLE SANTA ISABEL 44","Long_finish":-3.6970118324,"Lat_finish":40.4098520651},{"Place of interest":"Palacio de la M\u00fasica","Type of place":"Edificios de car\u00e1cter monumental","Place address":"Calle ABADA 14","Long_finish":-3.7046626414,"Lat_finish":40.4198824655},{"Place of interest":"Palacio de la Prensa","Type of place":"Edificios de car\u00e1cter monumental","Place address":"PLAZA CALLAO 4","Long_finish":-3.705509838,"Lat_finish":40.4198508335},{"Place of interest":"Palacio de Linares (actual Casa de Am\u00e9rica)","Type of place":"Edificios de car\u00e1cter monumental","Place address":"PLAZA CIBELES 1","Long_finish":-3.6921881937,"Lat_finish":40.4190226162},{"Place of interest":"Palacio de Liria","Type of place":"Edificios de car\u00e1cter monumental","Place address":"CALLE PRINCESA 20","Long_finish":-3.7126361453,"Lat_finish":40.4268375937},{"Place of interest":"Palacio de Longoria (sede de la Sociedad General de Autores y Editores)","Type of place":"Edificios de car\u00e1cter monumental","Place address":"Calle FERNANDO VI 4","Long_finish":-3.6968561787,"Lat_finish":40.4252901585},{"Place of interest":"Palacio de los Duques de Santo\u00f1a (C\u00e1mara de Comercio)","Type of place":"Edificios de car\u00e1cter monumental","Place address":"Calle HUERTAS 13","Long_finish":-3.7003826323,"Lat_finish":40.4140886309},{"Place of interest":"Palacio de Santa Cruz (sede actual del Ministerio de Asuntos Exteriores)","Type of place":"Edificios de car\u00e1cter monumental","Place address":"PLAZA PROVINCIA 1","Long_finish":-3.7058715081,"Lat_finish":40.4147107698},{"Place of interest":"Palacio del Duque de Uceda o Palacio de Consejos","Type of place":"Edificios de car\u00e1cter monumental","Place address":"CALLE MAYOR 79","Long_finish":-3.7129270527,"Lat_finish":40.4149758584},{"Place of interest":"Palacio del marqu\u00e9s de Perales (Filmoteca Nacional)","Type of place":"Edificios de car\u00e1cter monumental","Place address":"CALLE MAGDALENA 10","Long_finish":-3.702168316,"Lat_finish":40.4123221378},{"Place of interest":"Palacio del Marqu\u00e9s de Salamanca","Type of place":"Edificios de car\u00e1cter monumental","Place address":"Paseo RECOLETOS 10","Long_finish":-3.691016699,"Lat_finish":40.4214242966},{"Place of interest":"Palacio Real de El Pardo","Type of place":"Edificios de car\u00e1cter monumental","Place address":"CALLE MANUEL ALONSO 1","Long_finish":-3.7766111885,"Lat_finish":40.5207290511},{"Place of interest":"Palacio Real de Madrid","Type of place":"Edificios de car\u00e1cter monumental","Place address":"Calle BAILEN ","Long_finish":-3.714312,"Lat_finish":40.417955},{"Place of interest":"Parque de El Retiro","Type of place":"Edificios de car\u00e1cter monumental","Place address":"PLAZA INDEPENDENCIA 7","Long_finish":-3.6878947033,"Lat_finish":40.4196529286},{"Place of interest":"Parroquia de Nuestra Se\u00f1ora del Tr\u00e1nsito","Type of place":"Edificios de car\u00e1cter monumental","Place address":"CARRETERA CANILLAS 40","Long_finish":-3.6507587941,"Lat_finish":40.4627861714},{"Place of interest":"Parroquia de San Pedro Advincula","Type of place":"Edificios de car\u00e1cter monumental","Place address":"CALLE SIERRA GORDA 5","Long_finish":-3.6203306528,"Lat_finish":40.3802554453},{"Place of interest":"Parroquia de San Pedro de los Dominicos","Type of place":"Edificios de car\u00e1cter monumental","Place address":"AVENIDA BURGOS 204","Long_finish":-3.6591762424,"Lat_finish":40.5022552629},{"Place of interest":"Parroquia de Santa B\u00e1rbara","Type of place":"Edificios de car\u00e1cter monumental","Place address":"CALLE GENERAL CASTA&amp;Ntilde;OS 2","Long_finish":-3.6940790697,"Lat_finish":40.424293279},{"Place of interest":"Parroquia Nuestra Se\u00f1ora de Guadalupe","Type of place":"Edificios de car\u00e1cter monumental","Place address":"CALLE PUERTO RICO 1","Long_finish":-3.6746764221,"Lat_finish":40.4524274424},{"Place of interest":"Parroquia San Mill\u00e1n y San Cayetano","Type of place":"Edificios de car\u00e1cter monumental","Place address":"Calle EMBAJADORES 15","Long_finish":-3.7055100958,"Lat_finish":40.4096069856},{"Place of interest":"Plaza de Toros de Las Ventas","Type of place":"Edificios de car\u00e1cter monumental","Place address":"Calle ALCAL\u00c1 237","Long_finish":-3.6634101866,"Lat_finish":40.4322707249},{"Place of interest":"Plaza Mayor","Type of place":"Edificios de car\u00e1cter monumental","Place address":"Plaza MAYOR ","Long_finish":-3.7073857274,"Lat_finish":40.4153973523},{"Place of interest":"Puerta del Sol","Type of place":"Edificios de car\u00e1cter monumental","Place address":"PLAZA PUERTA DEL SOL 1","Long_finish":-3.7022628716,"Lat_finish":40.4168938346},{"Place of interest":"Real Academia de Bellas Artes de San Fernando","Type of place":"Edificios de car\u00e1cter monumental","Place address":"Calle ALCAL\u00c1 13","Long_finish":-3.7008122201,"Lat_finish":40.4180049622},{"Place of interest":"Real Academia de la Historia","Type of place":"Edificios de car\u00e1cter monumental","Place address":"CALLE LEON 21","Long_finish":-3.6989976494,"Lat_finish":40.4134776616},{"Place of interest":"Real Academia Espa\u00f1ola de la Lengua","Type of place":"Edificios de car\u00e1cter monumental","Place address":"CALLE FELIPE IV 4","Long_finish":-3.6909088749,"Lat_finish":40.4150782702},{"Place of interest":"Real Bas\u00edlica de San Francisco el Grande","Type of place":"Edificios de car\u00e1cter monumental","Place address":"Gran V\u00eda SAN FRANCISCO 19","Long_finish":-3.714687643,"Lat_finish":40.4103884618},{"Place of interest":"Real Casa de Correos","Type of place":"Edificios de car\u00e1cter monumental","Place address":"PLAZA PUERTA DEL SOL 7","Long_finish":-3.7037990315,"Lat_finish":40.4165508888},{"Place of interest":"Real Casa de la Aduana (actual sede del Ministerio de Hacienda)","Type of place":"Edificios de car\u00e1cter monumental","Place address":"CALLE ALCALA 5","Long_finish":-3.7018150873,"Lat_finish":40.4173138525},{"Place of interest":"Real Colegiata de San Isidro","Type of place":"Edificios de car\u00e1cter monumental","Place address":"CALLE TOLEDO 37","Long_finish":-3.707369401,"Lat_finish":40.4129711576},{"Place of interest":"Real Jard\u00edn Bot\u00e1nico","Type of place":"Edificios de car\u00e1cter monumental","Place address":"PLAZA MURILLO 2","Long_finish":-3.6920217961,"Lat_finish":40.4123884486},{"Place of interest":"Real Monasterio de la Encarnaci\u00f3n","Type of place":"Edificios de car\u00e1cter monumental","Place address":"Plaza ENCARNACION 1","Long_finish":-3.7118189017,"Lat_finish":40.4200007893},{"Place of interest":"Reforma del antiguo edificio de Uni\u00f3n El\u00e9ctrica","Type of place":"Edificios de car\u00e1cter monumental","Place address":"CALLE GRAN VIA 4","Long_finish":-3.6976372525,"Lat_finish":40.4192964419},{"Place of interest":"Residencia de Estudiantes","Type of place":"Edificios de car\u00e1cter monumental","Place address":"CALLE PINAR 21","Long_finish":-3.6880526406,"Lat_finish":40.4406577958},{"Place of interest":"Restos del Antiguo Palacio del Buen Retiro","Type of place":"Edificios de car\u00e1cter monumental","Place address":"CALLE FELIPE IV 1","Long_finish":-3.6924516397,"Lat_finish":40.4153434562},{"Place of interest":"Sal\u00f3n del Prado","Type of place":"Edificios de car\u00e1cter monumental","Place address":"Paseo PRADO ","Long_finish":-3.6931415043,"Lat_finish":40.414825966},{"Place of interest":"Teatro Barcel\u00f3","Type of place":"Edificios de car\u00e1cter monumental","Place address":"CALLE BARCELO 11","Long_finish":-3.6997913464,"Lat_finish":40.4269124538},{"Place of interest":"Teatro Mar\u00eda Guerrero","Type of place":"Edificios de car\u00e1cter monumental","Place address":"Calle TAMAYO Y BAUS 4","Long_finish":-3.6928584806,"Lat_finish":40.4228547196},{"Place of interest":"Teatro Real","Type of place":"Edificios de car\u00e1cter monumental","Place address":"PLAZA ISABEL II ","Long_finish":-3.709188008,"Lat_finish":40.4177629178},{"Place of interest":"Teatro Valle-Incl\u00e1n","Type of place":"Edificios de car\u00e1cter monumental","Place address":"CALLE VALENCIA 1","Long_finish":-3.7004752073,"Lat_finish":40.4080118459},{"Place of interest":"Templo de Debod","Type of place":"Edificios de car\u00e1cter monumental","Place address":"CALLE FERRAZ 1","Long_finish":-3.7162688083,"Lat_finish":40.4243011759},{"Place of interest":"Terminal T4","Type of place":"Edificios de car\u00e1cter monumental","Place address":"AEROPUERTO TERMINAL T-4 ","Long_finish":-3.5918370622,"Lat_finish":40.4924499947},{"Place of interest":"Torre Castelar","Type of place":"Edificios de car\u00e1cter monumental","Place address":"PASEO CASTELLANA 50","Long_finish":-3.6880157193,"Lat_finish":40.4351971112},{"Place of interest":"Torre de Madrid","Type of place":"Edificios de car\u00e1cter monumental","Place address":"PLAZA ESPA\u00d1A 18","Long_finish":-3.7123664212,"Lat_finish":40.4241896113},{"Place of interest":"Torres Blancas","Type of place":"Edificios de car\u00e1cter monumental","Place address":"AVENIDA AMERICA 37","Long_finish":-3.6718342743,"Lat_finish":40.4396504852},{"Place of interest":"Tribunal Superior de Justicia","Type of place":"Edificios de car\u00e1cter monumental","Place address":"CALLE GENERAL CASTA&amp;Ntilde;OS 1","Long_finish":-3.6942249751,"Lat_finish":40.4246913229},{"Place of interest":"Viaducto","Type of place":"Edificios de car\u00e1cter monumental","Place address":"CALLE BAILEN 12","Long_finish":-3.7137131257,"Lat_finish":40.4145874936},{"Place of interest":"Viviendas para Alejandro Santamar\u00eda","Type of place":"Edificios de car\u00e1cter monumental","Place address":"Calle GRAN VIA 56","Long_finish":-3.7074497967,"Lat_finish":40.4215140977},{"Place of interest":"Viviendas para el Conde Artaza","Type of place":"Edificios de car\u00e1cter monumental","Place address":"Calle CABALLERO DE GRACIA 11","Long_finish":-3.6994476676,"Lat_finish":40.4194096269},{"Place of interest":"Viviendas para el conde de God\u00f3","Type of place":"Edificios de car\u00e1cter monumental","Place address":"Calle GRAN VIA 44","Long_finish":-3.7054595055,"Lat_finish":40.4205622927},{"Place of interest":"Viviendas para el Marqu\u00e9s de Cubas y Fontalba","Type of place":"Edificios de car\u00e1cter monumental","Place address":"Calle GONZALO JIMENEZ DE QUESADA 2","Long_finish":-3.7028414131,"Lat_finish":40.4204431028},{"Place of interest":"Viviendas para el Marqu\u00e9s de Cubas y Fontalba","Type of place":"Edificios de car\u00e1cter monumental","Place address":"Calle GRAN VIA 30","Long_finish":-3.7024163367,"Lat_finish":40.4203736139},{"Place of interest":"Viviendas para el marqu\u00e9s de Falces","Type of place":"Edificios de car\u00e1cter monumental","Place address":"Calle CONCEPCION ARENAL 2","Long_finish":-3.7045863372,"Lat_finish":40.420477527},{"Place of interest":"Viviendas para el marqu\u00e9s de Urquijo","Type of place":"Edificios de car\u00e1cter monumental","Place address":"Calle GRAN VIA 6","Long_finish":-3.697892849,"Lat_finish":40.4195181223},{"Place of interest":"Viviendas para el marqu\u00e9s de Villamayor de Santiago","Type of place":"Edificios de car\u00e1cter monumental","Place address":"Calle CABALLERO DE GRACIA 7","Long_finish":-3.7003101505,"Lat_finish":40.4196026046},{"Place of interest":"Viviendas para Fernando M. Vidales","Type of place":"Edificios de car\u00e1cter monumental","Place address":"Calle GRAN VIA 52","Long_finish":-3.706751062,"Lat_finish":40.4212030551},{"Place of interest":"Viviendas para Jos\u00e9 Mar\u00eda Escri\u00f1a","Type of place":"Edificios de car\u00e1cter monumental","Place address":"Calle GRAN VIA 69","Long_finish":-3.7105751264,"Lat_finish":40.4227832227},{"Place of interest":"Viviendas para Jos\u00e9 P\u00e9rez Pla","Type of place":"Edificios de car\u00e1cter monumental","Place address":"Calle FLOR BAJA 4","Long_finish":-3.7098522218,"Lat_finish":40.4224182933},{"Place of interest":"Viviendas para Juan Giralt de la Porta","Type of place":"Edificios de car\u00e1cter monumental","Place address":"Calle CABALLERO DE GRACIA 17","Long_finish":-3.698667603,"Lat_finish":40.4192071356},{"Place of interest":"Viviendas para la Sociedad Inmobiliaria de la Villa de Madrid. Bar Chicote.","Type of place":"Edificios de car\u00e1cter monumental","Place address":"Calle GRAN VIA 12","Long_finish":-3.6988266088,"Lat_finish":40.4197647351},{"Place of interest":"Viviendas para la Sociedad Inmobiliaria de Madrid","Type of place":"Edificios de car\u00e1cter monumental","Place address":"Calle GRAN VIA 14","Long_finish":-3.6990748765,"Lat_finish":40.4198353065},{"Place of interest":"Viviendas para Luis Ochar\u00e1n Mazas","Type of place":"Edificios de car\u00e1cter monumental","Place address":"Calle CABALLERO DE GRACIA 21","Long_finish":-3.6981123267,"Lat_finish":40.4190843633},{"Place of interest":"Viviendas para Luis y Manuel Mitjans","Type of place":"Edificios de car\u00e1cter monumental","Place address":"Calle CABALLERO DE GRACIA 13","Long_finish":-3.6991402813,"Lat_finish":40.4193213957},{"Place of interest":"Viviendas para Mar\u00eda Monasterio Arrillaga","Type of place":"Edificios de car\u00e1cter monumental","Place address":"Calle GRAN VIA 36","Long_finish":-3.7043504121,"Lat_finish":40.4204609465},{"Place of interest":"Viviendas para Seguros La Estrella","Type of place":"Edificios de car\u00e1cter monumental","Place address":"Calle GRAN VIA 10","Long_finish":-3.6985428882,"Lat_finish":40.4196853683},{"Place of interest":"Viviendas para Seguros La Estrella","Type of place":"Edificios de car\u00e1cter monumental","Place address":"Calle GRAN VIA 20","Long_finish":-3.7000324985,"Lat_finish":40.4201087923},{"Place of interest":"Viviendas para Tom\u00e1s Allende","Type of place":"Edificios de car\u00e1cter monumental","Place address":"Calle CABALLERO DE GRACIA 1","Long_finish":-3.7012075309,"Lat_finish":40.4197503191},{"Place of interest":"Viviendas y comercio para Rafael S\u00e1nchez","Type of place":"Edificios de car\u00e1cter monumental","Place address":"Calle CLAVEL 4","Long_finish":null,"Lat_finish":null},{"Place of interest":"Viviendas y comercios para Francisco Escri\u00f1a","Type of place":"Edificios de car\u00e1cter monumental","Place address":"Calle GRAN VIA 71","Long_finish":-3.7107062082,"Lat_finish":40.4229175524},{"Place of interest":"Viviendas y oficinas","Type of place":"Edificios de car\u00e1cter monumental","Place address":"Calle GRAN VIA 51","Long_finish":-3.7079057135,"Lat_finish":40.4211509456},{"Place of interest":"Viviendas y oficinas","Type of place":"Edificios de car\u00e1cter monumental","Place address":"Calle GRAN VIA 80","Long_finish":-3.7103349857,"Lat_finish":40.4234874028},{"Place of interest":"Viviendas y oficinas","Type of place":"Edificios de car\u00e1cter monumental","Place address":"Calle GRAN VIA 45","Long_finish":-3.7074076412,"Lat_finish":40.4208657052},{"Place of interest":"Viviendas y oficinas","Type of place":"Edificios de car\u00e1cter monumental","Place address":"Calle GRAN VIA 60","Long_finish":-3.7082216222,"Lat_finish":40.4220499142},{"Place of interest":"Viviendas y oficinas para el vizconde de Escoriaza","Type of place":"Edificios de car\u00e1cter monumental","Place address":"Calle GRAN VIA 22B","Long_finish":-3.7004341842,"Lat_finish":40.4201964498},{"Place of interest":"Viviendas y oficinas para Hilario Ruiz","Type of place":"Edificios de car\u00e1cter monumental","Place address":"Calle DOCTOR CARRACIDO ","Long_finish":-3.7102903374,"Lat_finish":40.4226047921},{"Place of interest":"Viviendas y oficinas para Jes\u00fas de Murga","Type of place":"Edificios de car\u00e1cter monumental","Place address":"Calle FUENCARRAL 2","Long_finish":-3.7013772231,"Lat_finish":40.4201997417},{"Place of interest":"Viviendas y oficinas para Jes\u00fas Ussia y Cubas y Cine Azul","Type of place":"Edificios de car\u00e1cter monumental","Place address":"Calle GENERAL MITRE ","Long_finish":-3.7100497207,"Lat_finish":40.4232639294},{"Place of interest":"Viviendas y oficinas para Jos\u00e9 Mar\u00eda Cano","Type of place":"Edificios de car\u00e1cter monumental","Place address":"Calle GRAN VIA 42","Long_finish":-3.7051880313,"Lat_finish":40.4205279127},{"Place of interest":"Viviendas y oficinas para Jos\u00e9 Mar\u00eda de Antonio Becerril","Type of place":"Edificios de car\u00e1cter monumental","Place address":"Calle GRAN VIA 8","Long_finish":-3.6983063152,"Lat_finish":40.4196057161},{"Place of interest":"Viviendas y oficinas para Jos\u00e9 P\u00e9rez Pla","Type of place":"Edificios de car\u00e1cter monumental","Place address":"Calle GRAN VIA 64","Long_finish":-3.708577977,"Lat_finish":40.4223089927},{"Place of interest":"Viviendas y oficinas para Juan Miralles Ses\u00e9","Type of place":"Edificios de car\u00e1cter monumental","Place address":"Calle FLOR BAJA 2","Long_finish":-3.7096152475,"Lat_finish":40.4223026306},{"Place of interest":"Viviendas y oficinas para la Constructora Calpense","Type of place":"Edificios de car\u00e1cter monumental","Place address":"Calle CHINCHILLA ","Long_finish":-3.7033183884,"Lat_finish":40.4198365967},{"Place of interest":"Viviendas y oficinas para Leopoldo Garc\u00eda","Type of place":"Edificios de car\u00e1cter monumental","Place address":"Calle GRAN VIA 49","Long_finish":-3.7077278705,"Lat_finish":40.421052935},{"Place of interest":"Viviendas y oficinas para Rafael Calabuig","Type of place":"Edificios de car\u00e1cter monumental","Place address":"Calle GRAN VIA 58","Long_finish":-3.7080317059,"Lat_finish":40.421924951},{"Place of interest":"Viviendas y oficinas para Ram\u00f3n Saiz de Carlos","Type of place":"Edificios de car\u00e1cter monumental","Place address":"Calle GRAN VIA 33","Long_finish":-3.7043326123,"Lat_finish":40.4198844766},{"Place of interest":"Viviendas y oficinas para Santos Su\u00e1rez y Compa\u00f1\u00eda","Type of place":"Edificios de car\u00e1cter monumental","Place address":"Calle GRAN VIA 47","Long_finish":-3.7075967038,"Lat_finish":40.4209095934},{"Place of interest":"Viviendas y oficinas para Seguros La Estrella","Type of place":"Edificios de car\u00e1cter monumental","Place address":"Calle CABALLERO DE GRACIA 15","Long_finish":-3.6988921087,"Lat_finish":40.4192598329},{"Place of interest":"Viviendas y teatro Fontalba para el marqu\u00e9s de Cubas y Fontalba","Type of place":"Edificios de car\u00e1cter monumental","Place address":"Calle DESENGA\u00d1O 3","Long_finish":-3.702629156,"Lat_finish":40.420435384},{"Place of interest":"Zoo Aquarium de Madrid","Type of place":"Edificios de car\u00e1cter monumental","Place address":"COMPLEJO ZOOLOGICO DE LA CASA CAMPO ","Long_finish":-3.761360271,"Lat_finish":40.4117602976}]